[{"codigo": 38014, "nombre": "FUENCALIENTE", "isla": "LA PALMA", "lat": 28.493226, "lon": -17.850571}, {"codigo": 38047, "nombre": "TIJARAFE", "isla": "LA PALMA", "lat": 28.71009, "lon": -17.960911}, {"codigo": 38008, "nombre": "BREÑA ALTA", "isla": "LA PALMA", "lat": 28.663659, "lon": -17.793147}, {"codigo": 38030, "nombre": "PUNTALLANA", "isla": "LA PALMA", "lat": 28.743742, "lon": -17.7622}, {"codigo": 38037, "nombre": "SANTA CRUZ DE LA PALMA", "isla": "LA PALMA", "lat": 28.69762, "lon": -17.782374}, {"codigo": 38027, "nombre": "EL PASO", "isla": "LA PALMA", "lat": 28.669381, "lon": -17.874312}, {"codigo": 38029, "nombre": "PUNTAGORDA", "isla": "LA PALMA", "lat": 28.762421, "lon": -17.967208}, {"codigo": 38033, "nombre": "SAN ANDRÉS Y SAUCES", "isla": "LA PALMA", "lat": 28.790845, "lon": -17.779123}, {"codigo": 35028, "nombre": "TÍAS", "isla": "LANZAROTE", "lat": 28.922167, "lon": -13.658628}, {"codigo": 35004, "nombre": "ARRECIFE", "isla": "LANZAROTE", "lat": 28.962887, "lon": -13.54182}, {"codigo": 35018, "nombre": "SAN BARTOLOMÉ", "isla": "LANZAROTE", "lat": 28.957377, "lon": -13.598053}, {"codigo": 35024, "nombre": "TEGUISE", "isla": "LANZAROTE", "lat": 29.063279, "lon": -13.533374}, {"codigo": 35010, "nombre": "HARÍA", "isla": "LANZAROTE", "lat": 29.173558, "lon": -13.461735}, {"codigo": 38006, "nombre": "ARONA", "isla": "TENERIFE", "lat": 28.027097, "lon": -16.68073}, {"codigo": 38035, "nombre": "SAN MIGUEL DE ABONA", "isla": "TENERIFE", "lat": 28.047222, "lon": -16.615645}, {"codigo": 38001, "nombre": "ADEJE", "isla": "TENERIFE", "lat": 28.110281, "lon": -16.751258}, {"codigo": 38005, "nombre": "ARICO", "isla": "TENERIFE", "lat": 28.159231, "lon": -16.475189}, {"codigo": 38052, "nombre": "VILAFLOR", "isla": "TENERIFE", "lat": 28.165849, "lon": -16.637837}, {"codigo": 38012, "nombre": "FASNIA", "isla": "TENERIFE", "lat": 28.229671, "lon": -16.440559}, {"codigo": 38017, "nombre": "GRANADILLA DE ABONA", "isla": "TENERIFE", "lat": 28.085735, "lon": -16.558714}, {"codigo": 38020, "nombre": "GÜÍMAR", "isla": "TENERIFE", "lat": 28.272698, "lon": -16.392682}, {"codigo": 38010, "nombre": "BUENAVISTA DEL NORTE", "isla": "TENERIFE", "lat": 28.341226, "lon": -16.876471}, {"codigo": 38011, "nombre": "CANDELARIA", "isla": "TENERIFE", "lat": 28.371014, "lon": -16.367991}, {"codigo": 38044, "nombre": "EL TANQUE", "isla": "TENERIFE", "lat": 28.341444, "lon": -16.796049}, {"codigo": 38022, "nombre": "ICOD DE LOS VINOS", "isla": "TENERIFE", "lat": 28.368641, "lon": -16.702302}, {"codigo": 38004, "nombre": "ARAFO", "isla": "TENERIFE", "lat": 28.351892, "lon": -16.406703}, {"codigo": 38042, "nombre": "LOS SILOS", "isla": "TENERIFE", "lat": 28.366719, "lon": -16.814284}, {"codigo": 38018, "nombre": "LA GUANCHA", "isla": "TENERIFE", "lat": 28.37502, "lon": -16.65973}, {"codigo": 38032, "nombre": "EL ROSARIO", "isla": "TENERIFE", "lat": 28.411336, "lon": -16.334459}, {"codigo": 38046, "nombre": "TEGUESTE", "isla": "TENERIFE", "lat": 28.517995, "lon": -16.327029}, {"codigo": 38015, "nombre": "GARACHICO", "isla": "TENERIFE", "lat": 28.371196, "lon": -16.761849}, {"codigo": 35003, "nombre": "ANTIGUA", "isla": "FUERTEVENTURA", "lat": 28.346477, "lon": -13.883369}, {"codigo": 38050, "nombre": "VALLEHERMOSO", "isla": "LA GOMERA", "lat": 28.181639, "lon": -17.293241}, {"codigo": 38003, "nombre": "ALAJERÓ", "isla": "LA GOMERA", "lat": 28.030773, "lon": -17.243926}, {"codigo": 38049, "nombre": "VALLE GRAN REY", "isla": "LA GOMERA", "lat": 28.108475, "lon": -17.339742}, {"codigo": 38002, "nombre": "AGULO", "isla": "LA GOMERA", "lat": 28.195149, "lon": -17.209305}, {"codigo": 35025, "nombre": "TEJEDA", "isla": "GRAN CANARIA", "lat": 27.96694, "lon": -15.659915}, {"codigo": 35005, "nombre": "ARTENARA", "isla": "GRAN CANARIA", "lat": 28.025366, "lon": -15.711138}, {"codigo": 35032, "nombre": "VALLESECO", "isla": "GRAN CANARIA", "lat": 28.045769, "lon": -15.583116}, {"codigo": 35013, "nombre": "MOYA", "isla": "GRAN CANARIA", "lat": 28.101736, "lon": -15.585456}, {"codigo": 35009, "nombre": "GÁLDAR", "isla": "GRAN CANARIA", "lat": 28.134252, "lon": -15.675768}, {"codigo": 35022, "nombre": "SANTA LUCÍA DE TIRAJANA", "isla": "GRAN CANARIA", "lat": 27.867942, "lon": -15.483542}, {"codigo": 35002, "nombre": "AGÜIMES", "isla": "GRAN CANARIA", "lat": 27.883824, "lon": -15.432937}, {"codigo": 35011, "nombre": "INGENIO", "isla": "GRAN CANARIA", "lat": 27.93315, "lon": -15.451003}, {"codigo": 35019, "nombre": "SAN BARTOLOMÉ DE TIRAJANA", "isla": "GRAN CANARIA", "lat": 27.80443, "lon": -15.567933}, {"codigo": 35031, "nombre": "VALSEQUILLO", "isla": "GRAN CANARIA", "lat": 27.983572, "lon": -15.506849}, {"codigo": 35033, "nombre": "VEGA DE SAN MATEO", "isla": "GRAN CANARIA", "lat": 27.999664, "lon": -15.559712}, {"codigo": 35001, "nombre": "AGAETE", "isla": "GRAN CANARIA", "lat": 28.077204, "lon": -15.706527}, {"codigo": 35023, "nombre": "SANTA MARÍA DE GUÍA", "isla": "GRAN CANARIA", "lat": 28.126291, "lon": -15.621817}, {"codigo": 35008, "nombre": "FIRGAS", "isla": "GRAN CANARIA", "lat": 28.106789, "lon": -15.561153}, {"codigo": 35006, "nombre": "ARUCAS", "isla": "GRAN CANARIA", "lat": 28.137455, "lon": -15.528094}, {"codigo": 35027, "nombre": "TEROR", "isla": "GRAN CANARIA", "lat": 28.059032, "lon": -15.535487}, {"codigo": 35016, "nombre": "LAS PALMAS DE GRAN CANARIA", "isla": "GRAN CANARIA", "lat": 28.120182, "lon": -15.429067}, {"codigo": 35020, "nombre": "LA ALDEA DE SAN NICOLÁS", "isla": "GRAN CANARIA", "lat": 27.961638, "lon": -15.801828}, {"codigo": 35012, "nombre": "MOGÁN", "isla": "GRAN CANARIA", "lat": 27.811197, "lon": -15.718194}, {"codigo": 35026, "nombre": "TELDE", "isla": "GRAN CANARIA", "lat": 27.976873, "lon": -15.406694}, {"codigo": 35021, "nombre": "SANTA BRÍGIDA", "isla": "GRAN CANARIA", "lat": 28.032528, "lon": -15.493052}, {"codigo": 38901, "nombre": "EL PINAR", "isla": "EL HIERRO", "lat": 27.669535, "lon": -18.029232}, {"codigo": 38013, "nombre": "FRONTERA", "isla": "EL HIERRO", "lat": 27.769231, "lon": -18.062745}, {"codigo": 38048, "nombre": "VALVERDE", "isla": "EL HIERRO", "lat": 27.802324, "lon": -17.922629}, {"codigo": 35007, "nombre": "BETANCURIA", "isla": "FUERTEVENTURA", "lat": 28.448281, "lon": -14.122727}, {"codigo": 35017, "nombre": "PUERTO DEL ROSARIO", "isla": "FUERTEVENTURA", "lat": 28.516729, "lon": -13.956658}, {"codigo": 35014, "nombre": "LA OLIVA", "isla": "FUERTEVENTURA", "lat": 28.681376, "lon": -13.951788}, {"codigo": 35015, "nombre": "PÁJARA", "isla": "FUERTEVENTURA", "lat": 28.195286, "lon": -14.275635}, {"codigo": 35030, "nombre": "TUINEJE", "isla": "FUERTEVENTURA", "lat": 28.221468, "lon": -14.012865}, {"codigo": 38036, "nombre": "SAN SEBASTIÁN DE LA GOMERA", "isla": "LA GOMERA", "lat": 28.077963, "lon": -17.134735}, {"codigo": 38021, "nombre": "HERMIGUA", "isla": "LA GOMERA", "lat": 28.169834, "lon": -17.165435}, {"codigo": 38016, "nombre": "GARAFÍA", "isla": "LA PALMA", "lat": 28.817218, "lon": -17.9333}, {"codigo": 38007, "nombre": "BARLOVENTO", "isla": "LA PALMA", "lat": 28.821872, "lon": -17.809711}, {"codigo": 38053, "nombre": "VILLA DE MAZO", "isla": "LA PALMA", "lat": 28.588205, "lon": -17.766814}, {"codigo": 38009, "nombre": "BREÑA BAJA", "isla": "LA PALMA", "lat": 28.641078, "lon": -17.768949}, {"codigo": 38024, "nombre": "LOS LLANOS DE ARIDANE", "isla": "LA PALMA", "lat": 28.593877, "lon": -17.900648}, {"codigo": 38045, "nombre": "TAZACORTE", "isla": "LA PALMA", "lat": 28.629135, "lon": -17.934802}, {"codigo": 35034, "nombre": "YAIZA", "isla": "LANZAROTE", "lat": 28.909672, "lon": -13.818443}, {"codigo": 35029, "nombre": "TINAJO", "isla": "LANZAROTE", "lat": 29.085038, "lon": -13.718218}, {"codigo": 38019, "nombre": "GUÍA DE ISORA", "isla": "TENERIFE", "lat": 28.189867, "lon": -16.810182}, {"codigo": 38040, "nombre": "SANTIAGO DEL TEIDE", "isla": "TENERIFE", "lat": 28.245864, "lon": -16.841275}, {"codigo": 38038, "nombre": "SANTA CRUZ DE TENERIFE", "isla": "TENERIFE", "lat": 28.508253, "lon": -16.220562}, {"codigo": 38023, "nombre": "LA LAGUNA", "isla": "TENERIFE", "lat": 28.542372, "lon": -16.337402}, {"codigo": 38028, "nombre": "PUERTO DE LA CRUZ", "isla": "TENERIFE", "lat": 28.414786, "lon": -16.549005}, {"codigo": 38026, "nombre": "LA OROTAVA", "isla": "TENERIFE", "lat": 28.345631, "lon": -16.544705}, {"codigo": 38051, "nombre": "LA VICTORIA DE ACENTEJO", "isla": "TENERIFE", "lat": 28.426669, "lon": -16.460044}, {"codigo": 38025, "nombre": "LA MATANZA DE ACENTEJO", "isla": "TENERIFE", "lat": 28.450051, "lon": -16.457853}, {"codigo": 38039, "nombre": "SANTA ÚRSULA", "isla": "TENERIFE", "lat": 28.419972, "lon": -16.484083}, {"codigo": 38031, "nombre": "LOS REALEJOS", "isla": "TENERIFE", "lat": 28.379944, "lon": -16.586373}, {"codigo": 38034, "nombre": "SAN JUAN DE LA RAMBLA", "isla": "TENERIFE", "lat": 28.378614, "lon": -16.633618}, {"codigo": 38041, "nombre": "EL SAUZAL", "isla": "TENERIFE", "lat": 28.468515, "lon": -16.443532}, {"codigo": 38043, "nombre": "TACORONTE", "isla": "TENERIFE", "lat": 28.502996, "lon": -16.414094}]